[
  {
    "name": "Charm at the Steps of the Sacre Coeur/Montmartre",
    "imageUrl": "http://freefoodphotos.com/images/content/meat_preview.jpg",
    "price": 164,
    "priceCurrency": "₹",
    "lat": 11.6854,
    "lng": 76.1320
  },
  {
    "name": "Trendy Apt in Buttes Montmartre",
    "imageUrl": "http://freefoodphotos.com/images/content/seafood_preview.jpg",
    "price": 200,
    "priceCurrency": "₹",
    "lat": 11.4413,
    "lng": 75.8202
  },
  {
    "name": "Super 60m2 in trendy neighborhood!",
    "imageUrl": "http://freefoodphotos.com/imagelibrary/bread/thumbs/butter_teacake.jpg",
    "price": 150,
    "priceCurrency": "₹",
    "lat": 11.2587
    "lng": 75.7804
  },
  {
    "name": "Splendide terrasse vue imprenable",
    "imageUrl": "http://freefoodphotos.com/imagelibrary/seafood/thumbs/cooked_trout.jpg",
    "price": 115,
    "priceCurrency": "₹",
    "lat": 11.2699,
    "lng": 75.7815
  },
  {
    "name": "Superbe vue à 2 min du Sacré Coeur",
    "imageUrl": "http://freefoodphotos.com/imagelibrary/seafood/thumbs/fishcakes.jpg",
    "price": 135,
    "priceCurrency": "Rs",
    "lat": 11.1766,
    "lng": 75.8314
  },
  {
    "name": "Bohemian and Chic in Paris",
    "imageUrl": "http://freefoodphotos.com/imagelibrary/seafood/thumbs/fish_filleting.jpg",
    "price": 90,
    "priceCurrency": "Rs",
    "lat": 11.3049,
    "lng": 75.8771
  }
]
